{
"type": "FeatureCollection",
"crs": { "type": "name", "properties": { "name": "urn:ogc:def:crs:OGC:1.3:CRS84" } },
                                                                                
"features": [
{ "type": "Feature", "properties": { "id": 1.000000, "osm_id": 336221158.000000, "name": "Diriyah الدرعية‎", "type": "town", "z_order": 6.000000, "population": null }, "geometry": { "type": "Point", "coordinates": [ 46.574976926039398, 24.733616478552676 ] } },
{ "type": "Feature", "properties": { "id": 2.000000, "osm_id": 336222259.000000, "name": "Mursalat", "type": "hamlet", "z_order": 4.000000, "population": null }, "geometry": { "type": "Point", "coordinates": [ 46.684735349706585, 24.750584719518113 ] } },
{ "type": "Feature", "properties": { "id": 3.000000, "osm_id": 315358390.000000, "name": "الرياض", "type": "city", "z_order": 7.000000, "population": 5900000.000000 }, "geometry": { "type": "Point", "coordinates": [ 46.715064763425765, 24.63196913876746 ] } },
{ "type": "Feature", "properties": { "id": 4.000000, "osm_id": 1014940282.000000, "name": "العيينة‎", "type": "town", "z_order": 6.000000, "population": null }, "geometry": { "type": "Point", "coordinates": [ 46.391388939020231, 24.905277939365277 ] } },
{ "type": "Feature", "properties": { "id": 5.000000, "osm_id": 1013646924.000000, "name": "المزاحمية‎", "type": "town", "z_order": 6.000000, "population": 24000.000000 }, "geometry": { "type": "Point", "coordinates": [ 46.256049952695861, 24.482149995615686 ] } },
{ "type": "Feature", "properties": { "id": 6.000000, "osm_id": 1236702042.000000, "name": "نفود معيزيلة", "type": "locality", "z_order": 1.000000, "population": null }, "geometry": { "type": "Point", "coordinates": [ 46.624999956540876, 24.902777952924737 ] } },
{ "type": "Feature", "properties": { "id": 7.000000, "osm_id": 1236702195.000000, "name": "أبو طليحة", "type": "locality", "z_order": 1.000000, "population": null }, "geometry": { "type": "Point", "coordinates": [ 46.666666983949646, 25.016666978475826 ] } },
{ "type": "Feature", "properties": { "id": 8.000000, "osm_id": 1236702049.000000, "name": "العيينة", "type": "village", "z_order": 5.000000, "population": null }, "geometry": { "type": "Point", "coordinates": [ 46.379166950726805, 24.905832988993438 ] } },
{ "type": "Feature", "properties": { "id": 9.000000, "osm_id": 1236702040.000000, "name": "الجبيلة", "type": "village", "z_order": 5.000000, "population": null }, "geometry": { "type": "Point", "coordinates": [ 46.377221930095402, 24.92944397204289 ] } },
{ "type": "Feature", "properties": { "id": 10.000000, "osm_id": 1236702237.000000, "name": "بنبان", "type": "village", "z_order": 5.000000, "population": null }, "geometry": { "type": "Point", "coordinates": [ 46.588055963932334, 25.00166697601361 ] } },
{ "type": "Feature", "properties": { "id": 11.000000, "osm_id": 1236702180.000000, "name": "بنبن", "type": "locality", "z_order": 1.000000, "population": null }, "geometry": { "type": "Point", "coordinates": [ 46.570832996929454, 24.975832944604463 ] } },
{ "type": "Feature", "properties": { "id": 12.000000, "osm_id": 1236702353.000000, "name": "شعيب المسماه", "type": "locality", "z_order": 1.000000, "population": null }, "geometry": { "type": "Point", "coordinates": [ 46.265277925175724, 25.071388987715409 ] } },
{ "type": "Feature", "properties": { "id": 13.000000, "osm_id": 1236702249.000000, "name": "مزرعة خزم", "type": "locality", "z_order": 1.000000, "population": null }, "geometry": { "type": "Point", "coordinates": [ 46.681110930955327, 25.060277936868598 ] } },
{ "type": "Feature", "properties": { "id": 14.000000, "osm_id": 1236702194.000000, "name": "شعيب ثميلية", "type": "locality", "z_order": 1.000000, "population": null }, "geometry": { "type": "Point", "coordinates": [ 46.666682155194394, 25.016455922153938 ] } },
{ "type": "Feature", "properties": { "id": 15.000000, "osm_id": 1236702197.000000, "name": "ظهرة سدحاء", "type": "locality", "z_order": 1.000000, "population": null }, "geometry": { "type": "Point", "coordinates": [ 46.369443943045525, 25.013888964307029 ] } },
{ "type": "Feature", "properties": { "id": 16.000000, "osm_id": 1236702322.000000, "name": "غيانة", "type": "village", "z_order": 5.000000, "population": null }, "geometry": { "type": "Point", "coordinates": [ 46.283332963706641, 25.083332948280571 ] } },
{ "type": "Feature", "properties": { "id": 17.000000, "osm_id": 1236702239.000000, "name": "شعيب المذلة", "type": "locality", "z_order": 1.000000, "population": null }, "geometry": { "type": "Point", "coordinates": [ 46.580832942691586, 25.003888934725893 ] } },
{ "type": "Feature", "properties": { "id": 18.000000, "osm_id": 1236702240.000000, "name": "شعيب النظيم", "type": "locality", "z_order": 1.000000, "population": null }, "geometry": { "type": "Point", "coordinates": [ 46.512499979983687, 25.00861096369772 ] } },
{ "type": "Feature", "properties": { "id": 19.000000, "osm_id": 1236702220.000000, "name": "حزوى", "type": "village", "z_order": 5.000000, "population": null }, "geometry": { "type": "Point", "coordinates": [ 46.232075278867704, 24.991605339444135 ] } },
{ "type": "Feature", "properties": { "id": 20.000000, "osm_id": 1236702379.000000, "name": "شعيب الغيانة", "type": "locality", "z_order": 1.000000, "population": null }, "geometry": { "type": "Point", "coordinates": [ 46.345905463458507, 25.078953152415323 ] } },
{ "type": "Feature", "properties": { "id": 21.000000, "osm_id": 1236702371.000000, "name": "آبار حرقان", "type": "locality", "z_order": 1.000000, "population": null }, "geometry": { "type": "Point", "coordinates": [ 46.228332926738801, 25.075277939330814 ] } },
{ "type": "Feature", "properties": { "id": 22.000000, "osm_id": 1236702362.000000, "name": "شعيب الضيقة", "type": "locality", "z_order": 1.000000, "population": null }, "geometry": { "type": "Point", "coordinates": [ 46.336110958143166, 25.071666931624634 ] } },
{ "type": "Feature", "properties": { "id": 23.000000, "osm_id": 1236702652.000000, "name": "شعيب زلق", "type": "locality", "z_order": 1.000000, "population": null }, "geometry": { "type": "Point", "coordinates": [ 46.366049942812509, 24.899559553563222 ] } },
{ "type": "Feature", "properties": { "id": 24.000000, "osm_id": 1236702633.000000, "name": "الحني", "type": "village", "z_order": 5.000000, "population": null }, "geometry": { "type": "Point", "coordinates": [ 46.449999983694255, 24.866666953853581 ] } },
{ "type": "Feature", "properties": { "id": 25.000000, "osm_id": 1236702641.000000, "name": "شعيب بوثة", "type": "locality", "z_order": 1.000000, "population": null }, "geometry": { "type": "Point", "coordinates": [ 46.366666934705108, 24.89999993875594 ] } },
{ "type": "Feature", "properties": { "id": 26.000000, "osm_id": 1236702354.000000, "name": "شعيب حرقان", "type": "locality", "z_order": 1.000000, "population": null }, "geometry": { "type": "Point", "coordinates": [ 46.265555952903981, 25.071110959987152 ] } },
{ "type": "Feature", "properties": { "id": 27.000000, "osm_id": 1236702377.000000, "name": "صلبوخ", "type": "village", "z_order": 5.000000, "population": null }, "geometry": { "type": "Point", "coordinates": [ 46.345317975865072, 25.078833961752196 ] } },
{ "type": "Feature", "properties": { "id": 28.000000, "osm_id": 1236702675.000000, "name": "بوضة", "type": "village", "z_order": 5.000000, "population": null }, "geometry": { "type": "Point", "coordinates": [ 46.298332966168857, 24.897777980043685 ] } },
{ "type": "Feature", "properties": { "id": 29.000000, "osm_id": 1236702659.000000, "name": "وادي حنيفة", "type": "locality", "z_order": 1.000000, "population": null }, "geometry": { "type": "Point", "coordinates": [ 46.404166982770185, 24.89999993875594 ] } },
{ "type": "Feature", "properties": { "id": 30.000000, "osm_id": 1236702660.000000, "name": "شعيب الوحيرش", "type": "locality", "z_order": 1.000000, "population": null }, "geometry": { "type": "Point", "coordinates": [ 46.418332985866662, 24.89999993875594 ] } },
{ "type": "Feature", "properties": { "id": 31.000000, "osm_id": 1236703342.000000, "name": "وادي أبا الجرفان", "type": "locality", "z_order": 1.000000, "population": null }, "geometry": { "type": "Point", "coordinates": [ 46.75055592075725, 24.849999958488212 ] } },
{ "type": "Feature", "properties": { "id": 32.000000, "osm_id": 1236702394.000000, "name": "شعيب أبا الرثي", "type": "locality", "z_order": 1.000000, "population": null }, "geometry": { "type": "Point", "coordinates": [ 46.682221952220971, 25.068610973546612 ] } },
{ "type": "Feature", "properties": { "id": 33.000000, "osm_id": 1236702678.000000, "name": "وادي بوضة", "type": "locality", "z_order": 1.000000, "population": null }, "geometry": { "type": "Point", "coordinates": [ 46.342777923927372, 24.893055951071855 ] } },
{ "type": "Feature", "properties": { "id": 34.000000, "osm_id": 1236703347.000000, "name": "العمارية", "type": "village", "z_order": 5.000000, "population": null }, "geometry": { "type": "Point", "coordinates": [ 46.423332958747721, 24.794166927982985 ] } },
{ "type": "Feature", "properties": { "id": 35.000000, "osm_id": 1236702401.000000, "name": "شعيب الثميلة الجنوبية", "type": "locality", "z_order": 1.000000, "population": null }, "geometry": { "type": "Point", "coordinates": [ 46.681943924492707, 25.069443967083995 ] } },
{ "type": "Feature", "properties": { "id": 36.000000, "osm_id": 1236702683.000000, "name": "شعيب الحيسية", "type": "locality", "z_order": 1.000000, "population": null }, "geometry": { "type": "Point", "coordinates": [ 46.343332973555533, 24.893055951071855 ] } },
{ "type": "Feature", "properties": { "id": 37.000000, "osm_id": 1236703343.000000, "name": "الوادي", "type": "hamlet", "z_order": 4.000000, "population": null }, "geometry": { "type": "Point", "coordinates": [ 46.691388988264748, 24.78944397700181 ] } },
{ "type": "Feature", "properties": { "id": 38.000000, "osm_id": 1236702478.000000, "name": "شعيب غرور", "type": "locality", "z_order": 1.000000, "population": null }, "geometry": { "type": "Point", "coordinates": [ 46.283332963706641, 24.88333294339057 ] } },
{ "type": "Feature", "properties": { "id": 39.000000, "osm_id": 1236703345.000000, "name": "شعيب اليسرى", "type": "locality", "z_order": 1.000000, "population": null }, "geometry": { "type": "Point", "coordinates": [ 46.429443952894445, 24.793332928617218 ] } },
{ "type": "Feature", "properties": { "id": 40.000000, "osm_id": 1236703359.000000, "name": "أبا الكباش", "type": "village", "z_order": 5.000000, "population": null }, "geometry": { "type": "Point", "coordinates": [ 46.528055954083413, 24.788332955736166 ] } },
{ "type": "Feature", "properties": { "id": 41.000000, "osm_id": 1236703352.000000, "name": "الفلاح", "type": "hamlet", "z_order": 4.000000, "population": null }, "geometry": { "type": "Point", "coordinates": [ 46.708888977167526, 24.796388970514268 ] } },
{ "type": "Feature", "properties": { "id": 42.000000, "osm_id": 1236703357.000000, "name": "شعيب بريش", "type": "locality", "z_order": 1.000000, "population": null }, "geometry": { "type": "Point", "coordinates": [ 46.858055924433359, 24.848055943685182 ] } },
{ "type": "Feature", "properties": { "id": 43.000000, "osm_id": 1236703354.000000, "name": "عرق بنبان", "type": "region", "z_order": 9.000000, "population": null }, "geometry": { "type": "Point", "coordinates": [ 46.753888984554202, 24.97861095877326 ] } },
{ "type": "Feature", "properties": { "id": 44.000000, "osm_id": 1236703366.000000, "name": "الربيع", "type": "hamlet", "z_order": 4.000000, "population": null }, "geometry": { "type": "Point", "coordinates": [ 46.663888969780849, 24.802221936932739 ] } },
{ "type": "Feature", "properties": { "id": 45.000000, "osm_id": 1236703373.000000, "name": "اليرموك", "type": "hamlet", "z_order": 4.000000, "population": null }, "geometry": { "type": "Point", "coordinates": [ 46.765277979310241, 24.804999951101536 ] } },
{ "type": "Feature", "properties": { "id": 46.000000, "osm_id": 1236703374.000000, "name": "شعيب مزيرعة", "type": "locality", "z_order": 1.000000, "population": null }, "geometry": { "type": "Point", "coordinates": [ 46.483332968596642, 24.803332958198382 ] } },
{ "type": "Feature", "properties": { "id": 47.000000, "osm_id": 1236703368.000000, "name": "وادي البنبان", "type": "locality", "z_order": 1.000000, "population": null }, "geometry": { "type": "Point", "coordinates": [ 46.743055961435658, 24.967777935654709 ] } },
{ "type": "Feature", "properties": { "id": 48.000000, "osm_id": 1236703362.000000, "name": "أبا الكباش", "type": "village", "z_order": 5.000000, "population": null }, "geometry": { "type": "Point", "coordinates": [ 46.441666947016245, 24.789166955101905 ] } },
{ "type": "Feature", "properties": { "id": 49.000000, "osm_id": 1236703363.000000, "name": "الشهداء Ash-shuhada", "type": "suburb", "z_order": 3.000000, "population": null }, "geometry": { "type": "Point", "coordinates": [ 46.735277974385781, 24.789166955101905 ] } },
{ "type": "Feature", "properties": { "id": 50.000000, "osm_id": 1236703369.000000, "name": "المعيزيلة", "type": "hamlet", "z_order": 4.000000, "population": null }, "geometry": { "type": "Point", "coordinates": [ 46.844707575991492, 24.80228522030168 ] } },
{ "type": "Feature", "properties": { "id": 51.000000, "osm_id": 1236703393.000000, "name": "وادي أبو سديرة", "type": "locality", "z_order": 1.000000, "population": null }, "geometry": { "type": "Point", "coordinates": [ 46.833332998108887, 24.799999978220455 ] } },
{ "type": "Feature", "properties": { "id": 52.000000, "osm_id": 1236703364.000000, "name": "وادي مخر", "type": "locality", "z_order": 1.000000, "population": null }, "geometry": { "type": "Point", "coordinates": [ 46.750277976848025, 24.984166987110854 ] } },
{ "type": "Feature", "properties": { "id": 53.000000, "osm_id": 1236703405.000000, "name": "الندي", "type": "hamlet", "z_order": 4.000000, "population": null }, "geometry": { "type": "Point", "coordinates": [ 46.680832987046102, 24.809443952345106 ] } },
{ "type": "Feature", "properties": { "id": 54.000000, "osm_id": 1236703403.000000, "name": "الطراق", "type": "locality", "z_order": 1.000000, "population": null }, "geometry": { "type": "Point", "coordinates": [ 47.138332936415452, 25.022221917166036 ] } },
{ "type": "Feature", "properties": { "id": 55.000000, "osm_id": 1236703388.000000, "name": "البطين", "type": "hamlet", "z_order": 4.000000, "population": null }, "geometry": { "type": "Point", "coordinates": [ 46.809721931240404, 24.852221917200467 ] } },
{ "type": "Feature", "properties": { "id": 56.000000, "osm_id": 1236703375.000000, "name": "شعيب البويطح", "type": "locality", "z_order": 1.000000, "population": null }, "geometry": { "type": "Point", "coordinates": [ 46.463055971353462, 24.861388953244241 ] } },
{ "type": "Feature", "properties": { "id": 57.000000, "osm_id": 1236703389.000000, "name": "المغيدر", "type": "village", "z_order": 5.000000, "population": null }, "geometry": { "type": "Point", "coordinates": [ 46.516666959327381, 24.799999978220455 ] } },
{ "type": "Feature", "properties": { "id": 58.000000, "osm_id": 1236703398.000000, "name": "الدغم", "type": "locality", "z_order": 1.000000, "population": null }, "geometry": { "type": "Point", "coordinates": [ 46.918055934282279, 25.012777943041385 ] } },
{ "type": "Feature", "properties": { "id": 59.000000, "osm_id": 1236703394.000000, "name": "شعيب عقلة", "type": "locality", "z_order": 1.000000, "population": null }, "geometry": { "type": "Point", "coordinates": [ 46.833332998108887, 24.816666973585825 ] } },
{ "type": "Feature", "properties": { "id": 60.000000, "osm_id": 1236703379.000000, "name": "ضحلة أم سدرة", "type": "locality", "z_order": 1.000000, "population": null }, "geometry": { "type": "Point", "coordinates": [ 46.85611098762098, 25.097221929477143 ] } },
{ "type": "Feature", "properties": { "id": 61.000000, "osm_id": 1236703390.000000, "name": "شعيب الملقاه", "type": "village", "z_order": 5.000000, "population": null }, "geometry": { "type": "Point", "coordinates": [ 46.566666939595137, 24.799999978220455 ] } },
{ "type": "Feature", "properties": { "id": 62.000000, "osm_id": 1236703395.000000, "name": "شعيب بو خيثة", "type": "village", "z_order": 5.000000, "population": null }, "geometry": { "type": "Point", "coordinates": [ 46.499999963962011, 24.816666973585825 ] } },
{ "type": "Feature", "properties": { "id": 63.000000, "osm_id": 1236703400.000000, "name": "الياسمين", "type": "hamlet", "z_order": 4.000000, "population": null }, "geometry": { "type": "Point", "coordinates": [ 46.636110923568651, 24.81694399548573 ] } },
{ "type": "Feature", "properties": { "id": 64.000000, "osm_id": 1236703402.000000, "name": "الزاهر", "type": "neighbourhood", "z_order": 2.000000, "population": null }, "geometry": { "type": "Point", "coordinates": [ 47.050832991901636, 25.027499917775344 ] } },
{ "type": "Feature", "properties": { "id": 65.000000, "osm_id": 1236703396.000000, "name": "الجنادرية", "type": "village", "z_order": 5.000000, "population": null }, "geometry": { "type": "Point", "coordinates": [ 46.852777923824021, 24.819166960026362 ] } },
{ "type": "Feature", "properties": { "id": 66.000000, "osm_id": 1236703406.000000, "name": "النظيم", "type": "hamlet", "z_order": 4.000000, "population": null }, "geometry": { "type": "Point", "coordinates": [ 46.895555972498435, 24.809721980073363 ] } },
{ "type": "Feature", "properties": { "id": 67.000000, "osm_id": 1236703407.000000, "name": "قرطبة", "type": "hamlet", "z_order": 4.000000, "population": null }, "geometry": { "type": "Point", "coordinates": [ 46.728332980873311, 24.809166930445201 ] } },
{ "type": "Feature", "properties": { "id": 68.000000, "osm_id": 1236703418.000000, "name": "الوسيل", "type": "hamlet", "z_order": 4.000000, "population": null }, "geometry": { "type": "Point", "coordinates": [ 46.50833291682099, 24.813888959417028 ] } },
{ "type": "Feature", "properties": { "id": 69.000000, "osm_id": 1236703422.000000, "name": "خيالة أبو سويتيف", "type": "village", "z_order": 5.000000, "population": null }, "geometry": { "type": "Point", "coordinates": [ 46.483332968596642, 24.833332963122842 ] } },
{ "type": "Feature", "properties": { "id": 70.000000, "osm_id": 1236703421.000000, "name": "الطراق", "type": "locality", "z_order": 1.000000, "population": null }, "geometry": { "type": "Point", "coordinates": [ 46.968055998369039, 25.069999938721509 ] } },
{ "type": "Feature", "properties": { "id": 71.000000, "osm_id": 1236703427.000000, "name": "وادي الجافي", "type": "locality", "z_order": 1.000000, "population": null }, "geometry": { "type": "Point", "coordinates": [ 47.140277957046862, 24.991943968332322 ] } },
{ "type": "Feature", "properties": { "id": 72.000000, "osm_id": 1236703425.000000, "name": "كهف برمة", "type": "locality", "z_order": 1.000000, "population": null }, "geometry": { "type": "Point", "coordinates": [ 46.802777943556293, 24.991666946432446 ] } },
{ "type": "Feature", "properties": { "id": 73.000000, "osm_id": 1236703423.000000, "name": "شعيب أبا الجرفان", "type": "locality", "z_order": 1.000000, "population": null }, "geometry": { "type": "Point", "coordinates": [ 46.771388973456965, 24.839443957269538 ] } },
{ "type": "Feature", "properties": { "id": 74.000000, "osm_id": 1236703432.000000, "name": "فيضة المجلس", "type": "locality", "z_order": 1.000000, "population": null }, "geometry": { "type": "Point", "coordinates": [ 46.988332995612211, 25.066388931015322 ] } },
{ "type": "Feature", "properties": { "id": 75.000000, "osm_id": 1236703430.000000, "name": "القادسية", "type": "hamlet", "z_order": 4.000000, "population": null }, "geometry": { "type": "Point", "coordinates": [ 46.826110982696513, 24.825277954173085 ] } },
{ "type": "Feature", "properties": { "id": 76.000000, "osm_id": 1236703431.000000, "name": "المونسية", "type": "hamlet", "z_order": 4.000000, "population": null }, "geometry": { "type": "Point", "coordinates": [ 46.733888925391881, 24.826666919347954 ] } },
{ "type": "Feature", "properties": { "id": 77.000000, "osm_id": 1236703433.000000, "name": "النرجس", "type": "hamlet", "z_order": 4.000000, "population": null }, "geometry": { "type": "Point", "coordinates": [ 46.670555935565062, 24.821666946466905 ] } },
{ "type": "Feature", "properties": { "id": 78.000000, "osm_id": 1236703619.000000, "name": "الملز", "type": "hamlet", "z_order": 4.000000, "population": null }, "geometry": { "type": "Point", "coordinates": [ 46.727499987335932, 24.656110947744907 ] } },
{ "type": "Feature", "properties": { "id": 79.000000, "osm_id": 1236703437.000000, "name": "الصمان", "type": "locality", "z_order": 1.000000, "population": null }, "geometry": { "type": "Point", "coordinates": [ 46.99999993427749, 24.999999983110456 ] } },
{ "type": "Feature", "properties": { "id": 80.000000, "osm_id": 1236703622.000000, "name": "شبرا", "type": "hamlet", "z_order": 4.000000, "population": null }, "geometry": { "type": "Point", "coordinates": [ 46.672777978096342, 24.577221983818362 ] } },
{ "type": "Feature", "properties": { "id": 81.000000, "osm_id": 1236703620.000000, "name": "المرقب", "type": "hamlet", "z_order": 4.000000, "population": null }, "geometry": { "type": "Point", "coordinates": [ 46.724166923538974, 24.636110972401639 ] } },
{ "type": "Feature", "properties": { "id": 82.000000, "osm_id": 1236703621.000000, "name": "هجرة لبن", "type": "hamlet", "z_order": 4.000000, "population": null }, "geometry": { "type": "Point", "coordinates": [ 46.596677673355629, 24.63678395540742 ] } },
{ "type": "Feature", "properties": { "id": 83.000000, "osm_id": 1236703623.000000, "name": "المصانع", "type": "hamlet", "z_order": 4.000000, "population": null }, "geometry": { "type": "Point", "coordinates": [ 46.729999973776465, 24.578888976721515 ] } },
{ "type": "Feature", "properties": { "id": 84.000000, "osm_id": 1236703624.000000, "name": "الشرفية", "type": "hamlet", "z_order": 4.000000, "population": null }, "geometry": { "type": "Point", "coordinates": [ 46.670832957464938, 24.656666919382413 ] } },
{ "type": "Feature", "properties": { "id": 85.000000, "osm_id": 1236703625.000000, "name": "المدينة الصناعية", "type": "village", "z_order": 5.000000, "population": null }, "geometry": { "type": "Point", "coordinates": [ 46.666303796085145, 24.59961004719483 ] } },
{ "type": "Feature", "properties": { "id": 86.000000, "osm_id": 1236703628.000000, "name": "الوشام", "type": "hamlet", "z_order": 4.000000, "population": null }, "geometry": { "type": "Point", "coordinates": [ 46.698332975948858, 24.639999924017044 ] } },
{ "type": "Feature", "properties": { "id": 87.000000, "osm_id": 1236703629.000000, "name": "وادي وبير", "type": "locality", "z_order": 1.000000, "population": null }, "geometry": { "type": "Point", "coordinates": [ 46.54751068662528, 24.655949931384953 ] } },
{ "type": "Feature", "properties": { "id": 88.000000, "osm_id": 1236703632.000000, "name": "ظهرة البديعة", "type": "hamlet", "z_order": 4.000000, "population": null }, "geometry": { "type": "Point", "coordinates": [ 46.658055919543358, 24.603332953308382 ] } },
{ "type": "Feature", "properties": { "id": 89.000000, "osm_id": 1236703630.000000, "name": "شعيب أبلجد", "type": "locality", "z_order": 1.000000, "population": null }, "geometry": { "type": "Point", "coordinates": [ 46.666666983949646, 24.599999973330455 ] } },
{ "type": "Feature", "properties": { "id": 90.000000, "osm_id": 1236703633.000000, "name": "أم سليم", "type": "hamlet", "z_order": 4.000000, "population": null }, "geometry": { "type": "Point", "coordinates": [ 46.698332975948858, 24.63416695759858 ] } },
{ "type": "Feature", "properties": { "id": 91.000000, "osm_id": 1236703634.000000, "name": "الديرة", "type": "hamlet", "z_order": 4.000000, "population": null }, "geometry": { "type": "Point", "coordinates": [ 46.708055983630146, 24.634443979498485 ] } },
{ "type": "Feature", "properties": { "id": 92.000000, "osm_id": 1236703636.000000, "name": "الهدا", "type": "hamlet", "z_order": 4.000000, "population": null }, "geometry": { "type": "Point", "coordinates": [ 46.659166940809001, 24.65777794064806 ] } },
{ "type": "Feature", "properties": { "id": 93.000000, "osm_id": 1236703635.000000, "name": "سلطانة", "type": "hamlet", "z_order": 4.000000, "population": null }, "geometry": { "type": "Point", "coordinates": [ 46.685555938027278, 24.60472191848325 ] } },
{ "type": "Feature", "properties": { "id": 94.000000, "osm_id": 1236703640.000000, "name": "الشفا", "type": "hamlet", "z_order": 4.000000, "population": null }, "geometry": { "type": "Point", "coordinates": [ 46.698055954048982, 24.570555940043501 ] } },
{ "type": "Feature", "properties": { "id": 95.000000, "osm_id": 1236703638.000000, "name": "ثليم", "type": "hamlet", "z_order": 4.000000, "population": null }, "geometry": { "type": "Point", "coordinates": [ 46.732777987945262, 24.641943938820077 ] } },
{ "type": "Feature", "properties": { "id": 96.000000, "osm_id": 1236703641.000000, "name": "المعذر الشمالي", "type": "hamlet", "z_order": 4.000000, "population": null }, "geometry": { "type": "Point", "coordinates": [ 46.675277964536889, 24.664999956060427 ] } },
{ "type": "Feature", "properties": { "id": 97.000000, "osm_id": 1236703643.000000, "name": "اليمامة", "type": "hamlet", "z_order": 4.000000, "population": null }, "geometry": { "type": "Point", "coordinates": [ 46.714443999676746, 24.592499930189831 ] } },
{ "type": "Feature", "properties": { "id": 98.000000, "osm_id": 1236703646.000000, "name": "العمل", "type": "hamlet", "z_order": 4.000000, "population": null }, "geometry": { "type": "Point", "coordinates": [ 46.720832937732695, 24.644721952988874 ] } },
{ "type": "Feature", "properties": { "id": 99.000000, "osm_id": 1236703644.000000, "name": "السويدي الغربي", "type": "hamlet", "z_order": 4.000000, "population": null }, "geometry": { "type": "Point", "coordinates": [ 46.629721985512703, 24.569721940677738 ] } },
{ "type": "Feature", "properties": { "id": 100.000000, "osm_id": 1236703649.000000, "name": "الحزم", "type": "hamlet", "z_order": 4.000000, "population": null }, "geometry": { "type": "Point", "coordinates": [ 46.654999961465336, 24.547777950531412 ] } },
{ "type": "Feature", "properties": { "id": 101.000000, "osm_id": 1236703645.000000, "name": "الظهرة", "type": "hamlet", "z_order": 4.000000, "population": null }, "geometry": { "type": "Point", "coordinates": [ 46.645555987340707, 24.569166974868637 ] } },
{ "type": "Feature", "properties": { "id": 102.000000, "osm_id": 1236703647.000000, "name": "الشميسي", "type": "hamlet", "z_order": 4.000000, "population": null }, "geometry": { "type": "Point", "coordinates": [ 46.698888947586369, 24.621943963476777 ] } },
{ "type": "Feature", "properties": { "id": 103.000000, "osm_id": 1236703652.000000, "name": "الرفيعة", "type": "hamlet", "z_order": 4.000000, "population": null }, "geometry": { "type": "Point", "coordinates": [ 46.664999991046493, 24.641110945282691 ] } },
{ "type": "Feature", "properties": { "id": 104.000000, "osm_id": 1236703651.000000, "name": "جبرة", "type": "hamlet", "z_order": 4.000000, "population": null }, "geometry": { "type": "Point", "coordinates": [ 46.714443999676746, 24.621110969939394 ] } },
{ "type": "Feature", "properties": { "id": 105.000000, "osm_id": 1236703650.000000, "name": "منفوحة", "type": "hamlet", "z_order": 4.000000, "population": null }, "geometry": { "type": "Point", "coordinates": [ 46.727777931245157, 24.595832993986789 ] } },
{ "type": "Feature", "properties": { "id": 106.000000, "osm_id": 1236703655.000000, "name": "الفوطة", "type": "hamlet", "z_order": 4.000000, "population": null }, "geometry": { "type": "Point", "coordinates": [ 46.706943956536094, 24.641388973010944 ] } },
{ "type": "Feature", "properties": { "id": 107.000000, "osm_id": 1236703653.000000, "name": "عتيقة", "type": "hamlet", "z_order": 4.000000, "population": null }, "geometry": { "type": "Point", "coordinates": [ 46.708332921710991, 24.594443944992861 ] } },
{ "type": "Feature", "properties": { "id": 108.000000, "osm_id": 1236703657.000000, "name": "عليشة", "type": "hamlet", "z_order": 4.000000, "population": null }, "geometry": { "type": "Point", "coordinates": [ 46.68416697285241, 24.630832971792298 ] } },
{ "type": "Feature", "properties": { "id": 109.000000, "osm_id": 1236703656.000000, "name": "العريجاء الوسطى", "type": "hamlet", "z_order": 4.000000, "population": null }, "geometry": { "type": "Point", "coordinates": [ 46.639999959003092, 24.609999919092584 ] } },
{ "type": "Feature", "properties": { "id": 110.000000, "osm_id": 1236703654.000000, "name": "الفاخرية", "type": "hamlet", "z_order": 4.000000, "population": null }, "geometry": { "type": "Point", "coordinates": [ 46.676943951611662, 24.641388973010944 ] } },
{ "type": "Feature", "properties": { "id": 111.000000, "osm_id": 1236703662.000000, "name": "السويدي", "type": "hamlet", "z_order": 4.000000, "population": null }, "geometry": { "type": "Point", "coordinates": [ 46.676666929711757, 24.586666963771393 ] } },
{ "type": "Feature", "properties": { "id": 112.000000, "osm_id": 1236703659.000000, "name": "وادي البطحاء", "type": "locality", "z_order": 1.000000, "population": null }, "geometry": { "type": "Point", "coordinates": [ 46.699999968852012, 24.666666948963581 ] } },
{ "type": "Feature", "properties": { "id": 113.000000, "osm_id": 1236703661.000000, "name": "العود", "type": "hamlet", "z_order": 4.000000, "population": null }, "geometry": { "type": "Point", "coordinates": [ 46.72499991707636, 24.629443922798373 ] } },
{ "type": "Feature", "properties": { "id": 114.000000, "osm_id": 1236703658.000000, "name": "البديعة", "type": "hamlet", "z_order": 4.000000, "population": null }, "geometry": { "type": "Point", "coordinates": [ 46.675832930346012, 24.610555974549129 ] } },
{ "type": "Feature", "properties": { "id": 115.000000, "osm_id": 1236703665.000000, "name": "بدر", "type": "hamlet", "z_order": 4.000000, "population": null }, "geometry": { "type": "Point", "coordinates": [ 46.708055983630146, 24.545832929900001 ] } },
{ "type": "Feature", "properties": { "id": 116.000000, "osm_id": 1236703664.000000, "name": "منفوحة الجديدة", "type": "hamlet", "z_order": 4.000000, "population": null }, "geometry": { "type": "Point", "coordinates": [ 46.712499984873716, 24.608610953917719 ] } },
{ "type": "Feature", "properties": { "id": 117.000000, "osm_id": 1236703666.000000, "name": "طويق", "type": "hamlet", "z_order": 4.000000, "population": null }, "geometry": { "type": "Point", "coordinates": [ 46.547777985517484, 24.587221929580494 ] } },
{ "type": "Feature", "properties": { "id": 118.000000, "osm_id": 1236703663.000000, "name": "المروة", "type": "hamlet", "z_order": 4.000000, "population": null }, "geometry": { "type": "Point", "coordinates": [ 46.671666956830705, 24.544443964725133 ] } },
{ "type": "Feature", "properties": { "id": 119.000000, "osm_id": 1236703676.000000, "name": "الجرادية", "type": "hamlet", "z_order": 4.000000, "population": null }, "geometry": { "type": "Point", "coordinates": [ 46.696943926954951, 24.613055960989641 ] } },
{ "type": "Feature", "properties": { "id": 120.000000, "osm_id": 1236703674.000000, "name": "شيب لبن", "type": "locality", "z_order": 1.000000, "population": null }, "geometry": { "type": "Point", "coordinates": [ 46.556110938376463, 24.614166982255309 ] } },
{ "type": "Feature", "properties": { "id": 121.000000, "osm_id": 1236703675.000000, "name": "قصر الناصرية", "type": "village", "z_order": 5.000000, "population": null }, "geometry": { "type": "Point", "coordinates": [ 46.683332973486635, 24.649999953598211 ] } },
{ "type": "Feature", "properties": { "id": 122.000000, "osm_id": 1236703673.000000, "name": "وادي لبن", "type": "locality", "z_order": 1.000000, "population": null }, "geometry": { "type": "Point", "coordinates": [ 46.555919244250873, 24.614419277540833 ] } },
{ "type": "Feature", "properties": { "id": 123.000000, "osm_id": 1236703677.000000, "name": "النموذجية", "type": "hamlet", "z_order": 4.000000, "population": null }, "geometry": { "type": "Point", "coordinates": [ 46.697221954683215, 24.651666946501336 ] } },
{ "type": "Feature", "properties": { "id": 124.000000, "osm_id": 1236703667.000000, "name": "صياح", "type": "hamlet", "z_order": 4.000000, "population": null }, "geometry": { "type": "Point", "coordinates": [ 46.701666961755166, 24.608055988108585 ] } },
{ "type": "Feature", "properties": { "id": 125.000000, "osm_id": 1236703679.000000, "name": "الناصرية", "type": "hamlet", "z_order": 4.000000, "population": null }, "geometry": { "type": "Point", "coordinates": [ 46.674443965171122, 24.651110974863855 ] } },
{ "type": "Feature", "properties": { "id": 126.000000, "osm_id": 1236703678.000000, "name": "ظهرة لبن", "type": "hamlet", "z_order": 4.000000, "population": null }, "geometry": { "type": "Point", "coordinates": [ 46.553066631143849, 24.632894919972983 ] } },
{ "type": "Feature", "properties": { "id": 127.000000, "osm_id": 1236703696.000000, "name": "خشم العان", "type": "hamlet", "z_order": 4.000000, "population": null }, "geometry": { "type": "Point", "coordinates": [ 46.868332975914392, 24.681110979788315 ] } },
{ "type": "Feature", "properties": { "id": 128.000000, "osm_id": 1236703668.000000, "name": "فيحان", "type": "village", "z_order": 5.000000, "population": null }, "geometry": { "type": "Point", "coordinates": [ 46.733332953754363, 24.566666988428096 ] } },
{ "type": "Feature", "properties": { "id": 129.000000, "osm_id": 1236703691.000000, "name": "المعذر", "type": "hamlet", "z_order": 4.000000, "population": null }, "geometry": { "type": "Point", "coordinates": [ 46.671666956830705, 24.680277986250928 ] } },
{ "type": "Feature", "properties": { "id": 130.000000, "osm_id": 1236703687.000000, "name": "شعيب الباقرة", "type": "locality", "z_order": 1.000000, "population": null }, "geometry": { "type": "Point", "coordinates": [ 46.676943951611662, 24.494721928366602 ] } },
{ "type": "Feature", "properties": { "id": 131.000000, "osm_id": 1236703707.000000, "name": "حي السفارات", "type": "hamlet", "z_order": 4.000000, "population": null }, "geometry": { "type": "Point", "coordinates": [ 46.623621636383035, 24.681227991156618 ] } },
{ "type": "Feature", "properties": { "id": 132.000000, "osm_id": 1236703702.000000, "name": "أم الحمام", "type": "hamlet", "z_order": 4.000000, "population": null }, "geometry": { "type": "Point", "coordinates": [ 46.646121681985875, 24.693449979450037 ] } },
{ "type": "Feature", "properties": { "id": 133.000000, "osm_id": 1236703669.000000, "name": "العريجاء", "type": "hamlet", "z_order": 4.000000, "population": null }, "geometry": { "type": "Point", "coordinates": [ 46.599721980588271, 24.588610978574419 ] } },
{ "type": "Feature", "properties": { "id": 134.000000, "osm_id": 1236703671.000000, "name": "العريجاء الغربية", "type": "hamlet", "z_order": 4.000000, "population": null }, "geometry": { "type": "Point", "coordinates": [ 46.600832918034882, 24.605555917849017 ] } },
{ "type": "Feature", "properties": { "id": 135.000000, "osm_id": 1236703717.000000, "name": "جرير", "type": "hamlet", "z_order": 4.000000, "population": null }, "geometry": { "type": "Point", "coordinates": [ 46.742499989798148, 24.694999960984887 ] } },
{ "type": "Feature", "properties": { "id": 136.000000, "osm_id": 1236703718.000000, "name": "المنطقة الصناعية الثانية", "type": "locality", "z_order": 1.000000, "population": null }, "geometry": { "type": "Point", "coordinates": [ 46.891110965426485, 24.551388958237595 ] } },
{ "type": "Feature", "properties": { "id": 137.000000, "osm_id": 1236703716.000000, "name": "الروضة ar-roudha", "type": "suburb", "z_order": 3.000000, "population": null }, "geometry": { "type": "Point", "coordinates": [ 46.77111094572868, 24.73583298902787 ] } },
{ "type": "Feature", "properties": { "id": 138.000000, "osm_id": 1236703719.000000, "name": "النسيم الشرقي", "type": "hamlet", "z_order": 4.000000, "population": null }, "geometry": { "type": "Point", "coordinates": [ 46.840555935530602, 24.737777925840245 ] } },
{ "type": "Feature", "properties": { "id": 139.000000, "osm_id": 1236703712.000000, "name": "السلامة", "type": "hamlet", "z_order": 4.000000, "population": null }, "geometry": { "type": "Point", "coordinates": [ 46.704166948195677, 24.68138892369754 ] } },
{ "type": "Feature", "properties": { "id": 140.000000, "osm_id": 1236703721.000000, "name": "الفيحاء", "type": "hamlet", "z_order": 4.000000, "population": null }, "geometry": { "type": "Point", "coordinates": [ 46.804443930631066, 24.68333293850057 ] } },
{ "type": "Feature", "properties": { "id": 141.000000, "osm_id": 1236703720.000000, "name": "الربوة", "type": "hamlet", "z_order": 4.000000, "population": null }, "geometry": { "type": "Point", "coordinates": [ 46.766943966385014, 24.696666953888041 ] } },
{ "type": "Feature", "properties": { "id": 142.000000, "osm_id": 1236703723.000000, "name": "الجديدة", "type": "hamlet", "z_order": 4.000000, "population": null }, "geometry": { "type": "Point", "coordinates": [ 46.59333295871329, 24.746388990246544 ] } },
{ "type": "Feature", "properties": { "id": 143.000000, "osm_id": 1236703727.000000, "name": "المدينة", "type": "hamlet", "z_order": 4.000000, "population": null }, "geometry": { "type": "Point", "coordinates": [ 46.636666979025193, 24.74722198378393 ] } },
{ "type": "Feature", "properties": { "id": 144.000000, "osm_id": 1236703724.000000, "name": "علب", "type": "village", "z_order": 5.000000, "population": null }, "geometry": { "type": "Point", "coordinates": [ 46.53333294886437, 24.783332982855086 ] } },
{ "type": "Feature", "properties": { "id": 145.000000, "osm_id": 1236703726.000000, "name": "العليا", "type": "hamlet", "z_order": 4.000000, "population": null }, "geometry": { "type": "Point", "coordinates": [ 46.690832932808235, 24.686666924306873 ] } },
{ "type": "Feature", "properties": { "id": 146.000000, "osm_id": 1236703732.000000, "name": "حفنة", "type": "locality", "z_order": 1.000000, "population": null }, "geometry": { "type": "Point", "coordinates": [ 46.816666924752866, 24.449999948708211 ] } },
{ "type": "Feature", "properties": { "id": 147.000000, "osm_id": 1236703729.000000, "name": "مطار جنوب الرياض", "type": "locality", "z_order": 1.000000, "population": null }, "geometry": { "type": "Point", "coordinates": [ 46.83749997745258, 24.592221986280606 ] } },
{ "type": "Feature", "properties": { "id": 148.000000, "osm_id": 1236703730.000000, "name": "المالز", "type": "hamlet", "z_order": 4.000000, "population": null }, "geometry": { "type": "Point", "coordinates": [ 46.739999919538576, 24.686666924306873 ] } },
{ "type": "Feature", "properties": { "id": 149.000000, "osm_id": 1236703728.000000, "name": "الصناعية", "type": "locality", "z_order": 1.000000, "population": null }, "geometry": { "type": "Point", "coordinates": [ 46.75638897099472, 24.643332987813977 ] } },
{ "type": "Feature", "properties": { "id": 150.000000, "osm_id": 1236703747.000000, "name": "شعيب دكنة", "type": "locality", "z_order": 1.000000, "population": null }, "geometry": { "type": "Point", "coordinates": [ 46.799999929387496, 24.499999928975935 ] } },
{ "type": "Feature", "properties": { "id": 151.000000, "osm_id": 1236703756.000000, "name": "عرقة", "type": "hamlet", "z_order": 4.000000, "population": null }, "geometry": { "type": "Point", "coordinates": [ 46.600843646870942, 24.69011699947211 ] } },
{ "type": "Feature", "properties": { "id": 152.000000, "osm_id": 1236703753.000000, "name": "الزهراء", "type": "hamlet", "z_order": 4.000000, "population": null }, "geometry": { "type": "Point", "coordinates": [ 46.728610924782537, 24.689443932647293 ] } },
{ "type": "Feature", "properties": { "id": 153.000000, "osm_id": 1236703734.000000, "name": "عويجاء", "type": "locality", "z_order": 1.000000, "population": null }, "geometry": { "type": "Point", "coordinates": [ 46.783332934022127, 24.449999948708211 ] } },
{ "type": "Feature", "properties": { "id": 154.000000, "osm_id": 1236703733.000000, "name": "حي الملك فهد", "type": "hamlet", "z_order": 4.000000, "population": null }, "geometry": { "type": "Point", "coordinates": [ 46.672499950368092, 24.741388933546432 ] } },
{ "type": "Feature", "properties": { "id": 155.000000, "osm_id": 1236703780.000000, "name": "المرسلات", "type": "locality", "z_order": 1.000000, "population": null }, "geometry": { "type": "Point", "coordinates": [ 46.689721995361623, 24.750832991490114 ] } },
{ "type": "Feature", "properties": { "id": 156.000000, "osm_id": 1236703767.000000, "name": "الفواز", "type": "hamlet", "z_order": 4.000000, "population": null }, "geometry": { "type": "Point", "coordinates": [ 46.628888991975309, 24.501943943778969 ] } },
{ "type": "Feature", "properties": { "id": 157.000000, "osm_id": 1236703764.000000, "name": "النخيل", "type": "hamlet", "z_order": 4.000000, "population": null }, "geometry": { "type": "Point", "coordinates": [ 46.614768083517923, 24.742404568753983 ] } },
{ "type": "Feature", "properties": { "id": 158.000000, "osm_id": 1236703775.000000, "name": "ديراب", "type": "hamlet", "z_order": 4.000000, "population": null }, "geometry": { "type": "Point", "coordinates": [ 46.626110977806512, 24.501388977969867 ] } },
{ "type": "Feature", "properties": { "id": 159.000000, "osm_id": 1236703800.000000, "name": "المربع", "type": "hamlet", "z_order": 4.000000, "population": null }, "geometry": { "type": "Point", "coordinates": [ 46.703610976558195, 24.667221998591714 ] } },
{ "type": "Feature", "properties": { "id": 160.000000, "osm_id": 1236703790.000000, "name": "الدرعية", "type": "hamlet", "z_order": 4.000000, "population": null }, "geometry": { "type": "Point", "coordinates": [ 46.572221962104351, 24.748332921230542 ] } },
{ "type": "Feature", "properties": { "id": 161.000000, "osm_id": 1236703785.000000, "name": "الجزيرة", "type": "hamlet", "z_order": 4.000000, "population": null }, "geometry": { "type": "Point", "coordinates": [ 46.79666694940957, 24.666943970863453 ] } },
{ "type": "Feature", "properties": { "id": 162.000000, "osm_id": 1236703795.000000, "name": "السلام", "type": "hamlet", "z_order": 4.000000, "population": null }, "geometry": { "type": "Point", "coordinates": [ 46.817777946018509, 24.703055975763018 ] } },
{ "type": "Feature", "properties": { "id": 163.000000, "osm_id": 1236703829.000000, "name": "المروج", "type": "hamlet", "z_order": 4.000000, "population": null }, "geometry": { "type": "Point", "coordinates": [ 46.662777948515185, 24.757499957274316 ] } },
{ "type": "Feature", "properties": { "id": 164.000000, "osm_id": 1236703810.000000, "name": "الصفا", "type": "hamlet", "z_order": 4.000000, "population": null }, "geometry": { "type": "Point", "coordinates": [ 46.772777938631833, 24.672499999201051 ] } },
{ "type": "Feature", "properties": { "id": 165.000000, "osm_id": 1236703819.000000, "name": "الضباط", "type": "hamlet", "z_order": 4.000000, "population": null }, "geometry": { "type": "Point", "coordinates": [ 46.723332924173206, 24.670555984398021 ] } },
{ "type": "Feature", "properties": { "id": 166.000000, "osm_id": 1236703808.000000, "name": "الصعادة", "type": "hamlet", "z_order": 4.000000, "population": null }, "geometry": { "type": "Point", "coordinates": [ 46.847777950942969, 24.705277934475276 ] } },
{ "type": "Feature", "properties": { "id": 167.000000, "osm_id": 1236703836.000000, "name": "المرسلات", "type": "hamlet", "z_order": 4.000000, "population": null }, "geometry": { "type": "Point", "coordinates": [ 46.663610942052564, 24.757499957274316 ] } },
{ "type": "Feature", "properties": { "id": 168.000000, "osm_id": 1236703821.000000, "name": "السليمانية", "type": "hamlet", "z_order": 4.000000, "population": null }, "geometry": { "type": "Point", "coordinates": [ 46.691666932174002, 24.705277934475276 ] } },
{ "type": "Feature", "properties": { "id": 169.000000, "osm_id": 1236703833.000000, "name": "النزهة", "type": "hamlet", "z_order": 4.000000, "population": null }, "geometry": { "type": "Point", "coordinates": [ 46.707499928173597, 24.756943985636809 ] } },
{ "type": "Feature", "properties": { "id": 170.000000, "osm_id": 1236703835.000000, "name": "وادي نمار", "type": "locality", "z_order": 1.000000, "population": null }, "geometry": { "type": "Point", "coordinates": [ 46.583332929132126, 24.538332970578409 ] } },
{ "type": "Feature", "properties": { "id": 171.000000, "osm_id": 1236703834.000000, "name": "العقيق", "type": "hamlet", "z_order": 4.000000, "population": null }, "geometry": { "type": "Point", "coordinates": [ 46.61527795468799, 24.759166950177473 ] } },
{ "type": "Feature", "properties": { "id": 172.000000, "osm_id": 1236703843.000000, "name": "حطين", "type": "hamlet", "z_order": 4.000000, "population": null }, "geometry": { "type": "Point", "coordinates": [ 46.600832918034882, 24.753888949568136 ] } },
{ "type": "Feature", "properties": { "id": 173.000000, "osm_id": 1236703832.000000, "name": "حي الملك فيصل", "type": "hamlet", "z_order": 4.000000, "population": null }, "geometry": { "type": "Point", "coordinates": [ 46.781666946947354, 24.755832964371162 ] } },
{ "type": "Feature", "properties": { "id": 174.000000, "osm_id": 1236703837.000000, "name": "الفيصلية", "type": "hamlet", "z_order": 4.000000, "population": null }, "geometry": { "type": "Point", "coordinates": [ 46.772499994722608, 24.632499964695452 ] } },
{ "type": "Feature", "properties": { "id": 175.000000, "osm_id": 1236703842.000000, "name": "العزيزية", "type": "hamlet", "z_order": 4.000000, "population": null }, "geometry": { "type": "Point", "coordinates": [ 46.779999954044193, 24.584166977330852 ] } },
{ "type": "Feature", "properties": { "id": 176.000000, "osm_id": 1236703840.000000, "name": "النور", "type": "hamlet", "z_order": 4.000000, "population": null }, "geometry": { "type": "Point", "coordinates": [ 46.80944398733115, 24.631943993057945 ] } },
{ "type": "Feature", "properties": { "id": 177.000000, "osm_id": 1236703850.000000, "name": "الرحمانية", "type": "village", "z_order": 5.000000, "population": null }, "geometry": { "type": "Point", "coordinates": [ 46.656999129191234, 24.713855555087889 ] } },
{ "type": "Feature", "properties": { "id": 178.000000, "osm_id": 1236703846.000000, "name": "مغرزات", "type": "hamlet", "z_order": 4.000000, "population": null }, "geometry": { "type": "Point", "coordinates": [ 46.725832994432778, 24.76361095142104 ] } },
{ "type": "Feature", "properties": { "id": 179.000000, "osm_id": 1236703855.000000, "name": "النسيم", "type": "hamlet", "z_order": 4.000000, "population": null }, "geometry": { "type": "Point", "coordinates": [ 46.825555933068387, 24.718888971762624 ] } },
{ "type": "Feature", "properties": { "id": 180.000000, "osm_id": 1236703847.000000, "name": "الروابي", "type": "hamlet", "z_order": 4.000000, "population": null }, "geometry": { "type": "Point", "coordinates": [ 46.788610934631436, 24.71333294342503 ] } },
{ "type": "Feature", "properties": { "id": 181.000000, "osm_id": 1236703851.000000, "name": "الفائزية", "type": "hamlet", "z_order": 4.000000, "population": null }, "geometry": { "type": "Point", "coordinates": [ 46.804953131248851, 24.659309565814965 ] } },
{ "type": "Feature", "properties": { "id": 182.000000, "osm_id": 1236703848.000000, "name": "الرماية", "type": "hamlet", "z_order": 4.000000, "population": null }, "geometry": { "type": "Point", "coordinates": [ 46.862499925676921, 24.7638889791493 ] } },
{ "type": "Feature", "properties": { "id": 183.000000, "osm_id": 1236703856.000000, "name": "حي الملك عبد العزيز", "type": "hamlet", "z_order": 4.000000, "population": null }, "geometry": { "type": "Point", "coordinates": [ 46.698055954048982, 24.768888952030352 ] } },
{ "type": "Feature", "properties": { "id": 184.000000, "osm_id": 1236703845.000000, "name": "المصيف", "type": "hamlet", "z_order": 4.000000, "population": null }, "geometry": { "type": "Point", "coordinates": [ 46.681388958683613, 24.765555972052454 ] } },
{ "type": "Feature", "properties": { "id": 185.000000, "osm_id": 1236703857.000000, "name": "الخالدية", "type": "hamlet", "z_order": 4.000000, "population": null }, "geometry": { "type": "Point", "coordinates": [ 46.75944392324439, 24.622221991205038 ] } },
{ "type": "Feature", "properties": { "id": 186.000000, "osm_id": 1236703852.000000, "name": "النهضة", "type": "hamlet", "z_order": 4.000000, "population": null }, "geometry": { "type": "Point", "coordinates": [ 46.80611092353422, 24.760832937252246 ] } },
{ "type": "Feature", "properties": { "id": 187.000000, "osm_id": 1236703854.000000, "name": "السلي", "type": "hamlet", "z_order": 4.000000, "population": null }, "geometry": { "type": "Point", "coordinates": [ 46.837277018828161, 24.657224232124435 ] } },
{ "type": "Feature", "properties": { "id": 188.000000, "osm_id": 1236703859.000000, "name": "عودة", "type": "village", "z_order": 5.000000, "population": null }, "geometry": { "type": "Point", "coordinates": [ 46.549999944229739, 24.766666993318097 ] } },
{ "type": "Feature", "properties": { "id": 189.000000, "osm_id": 1236703861.000000, "name": "الغنامية", "type": "village", "z_order": 5.000000, "population": null }, "geometry": { "type": "Point", "coordinates": [ 46.803332993184455, 24.478888932366996 ] } },
{ "type": "Feature", "properties": { "id": 190.000000, "osm_id": 1236703867.000000, "name": "الصالحية", "type": "hamlet", "z_order": 4.000000, "population": null }, "geometry": { "type": "Point", "coordinates": [ 46.746388941413556, 24.645555952354641 ] } },
{ "type": "Feature", "properties": { "id": 191.000000, "osm_id": 1236703865.000000, "name": "وادي الأيسن", "type": "locality", "z_order": 1.000000, "population": null }, "geometry": { "type": "Point", "coordinates": [ 46.621666976562949, 24.774443974539565 ] } },
{ "type": "Feature", "properties": { "id": 192.000000, "osm_id": 1236703862.000000, "name": "العليا", "type": "locality", "z_order": 1.000000, "population": null }, "geometry": { "type": "Point", "coordinates": [ 46.668332971024391, 24.725277993637604 ] } },
{ "type": "Feature", "properties": { "id": 193.000000, "osm_id": 1236703869.000000, "name": "الروضة", "type": "hamlet", "z_order": 4.000000, "population": null }, "geometry": { "type": "Point", "coordinates": [ 46.765555923219466, 24.723610916915419 ] } },
{ "type": "Feature", "properties": { "id": 194.000000, "osm_id": 1236703868.000000, "name": "وادي عبير", "type": "locality", "z_order": 1.000000, "population": null }, "geometry": { "type": "Point", "coordinates": [ 46.533343677700429, 24.645394935994688 ] } },
{ "type": "Feature", "properties": { "id": 195.000000, "osm_id": 1236703866.000000, "name": "المعارض", "type": "hamlet", "z_order": 4.000000, "population": null }, "geometry": { "type": "Point", "coordinates": [ 46.791666976528518, 24.724166972371957 ] } },
{ "type": "Feature", "properties": { "id": 196.000000, "osm_id": 1236703870.000000, "name": "النسيم الغربي", "type": "hamlet", "z_order": 4.000000, "population": null }, "geometry": { "type": "Point", "coordinates": [ 46.819443933093282, 24.728888917524753 ] } },
{ "type": "Feature", "properties": { "id": 197.000000, "osm_id": 1236703872.000000, "name": "الغدير", "type": "hamlet", "z_order": 4.000000, "population": null }, "geometry": { "type": "Point", "coordinates": [ 46.655555933102818, 24.774166952639689 ] } },
{ "type": "Feature", "properties": { "id": 198.000000, "osm_id": 1236703878.000000, "name": "التعاون", "type": "hamlet", "z_order": 4.000000, "population": null }, "geometry": { "type": "Point", "coordinates": [ 46.698888947586369, 24.773888924911432 ] } },
{ "type": "Feature", "properties": { "id": 199.000000, "osm_id": 1236703888.000000, "name": "الجزعة", "type": "village", "z_order": 5.000000, "population": null }, "geometry": { "type": "Point", "coordinates": [ 46.750007828108721, 24.566666988428096 ] } },
{ "type": "Feature", "properties": { "id": 200.000000, "osm_id": 1236703902.000000, "name": "الخليج", "type": "hamlet", "z_order": 4.000000, "population": null }, "geometry": { "type": "Point", "coordinates": [ 46.799166935850103, 24.771388938470892 ] } },
{ "type": "Feature", "properties": { "id": 201.000000, "osm_id": 1236703881.000000, "name": "الفاروق", "type": "hamlet", "z_order": 4.000000, "population": null }, "geometry": { "type": "Point", "coordinates": [ 46.778610988869332, 24.649443981960701 ] } },
{ "type": "Feature", "properties": { "id": 202.000000, "osm_id": 1236703875.000000, "name": "المنصورة", "type": "hamlet", "z_order": 4.000000, "population": null }, "geometry": { "type": "Point", "coordinates": [ 46.744721948510431, 24.607777960380332 ] } },
{ "type": "Feature", "properties": { "id": 203.000000, "osm_id": 1236703905.000000, "name": "مغرزات", "type": "hamlet", "z_order": 4.000000, "population": null }, "geometry": { "type": "Point", "coordinates": [ 46.634279226268148, 24.783133745016642 ] } },
{ "type": "Feature", "properties": { "id": 204.000000, "osm_id": 1236703911.000000, "name": "المناخ", "type": "hamlet", "z_order": 4.000000, "population": null }, "geometry": { "type": "Point", "coordinates": [ 46.793332963603284, 24.615832969330054 ] } },
{ "type": "Feature", "properties": { "id": 205.000000, "osm_id": 1236703920.000000, "name": "الدار البيضاء", "type": "hamlet", "z_order": 4.000000, "population": null }, "geometry": { "type": "Point", "coordinates": [ 46.763888930316341, 24.561943953627889 ] } },
{ "type": "Feature", "properties": { "id": 206.000000, "osm_id": 1236703924.000000, "name": "المحمدية", "type": "hamlet", "z_order": 4.000000, "population": null }, "geometry": { "type": "Point", "coordinates": [ 46.650288661329569, 24.732894880508468 ] } },
{ "type": "Feature", "properties": { "id": 207.000000, "osm_id": 1236703926.000000, "name": "المنصورية", "type": "village", "z_order": 5.000000, "population": null }, "geometry": { "type": "Point", "coordinates": [ 46.783332934022127, 24.516666924341308 ] } },
{ "type": "Feature", "properties": { "id": 208.000000, "osm_id": 1236703933.000000, "name": "النفل", "type": "hamlet", "z_order": 4.000000, "population": null }, "geometry": { "type": "Point", "coordinates": [ 46.673055922005602, 24.781943933861182 ] } },
{ "type": "Feature", "properties": { "id": 209.000000, "osm_id": 1236703943.000000, "name": "الفواز", "type": "village", "z_order": 5.000000, "population": null }, "geometry": { "type": "Point", "coordinates": [ 46.618055968856794, 24.489999983213806 ] } },
{ "type": "Feature", "properties": { "id": 210.000000, "osm_id": 1236703934.000000, "name": "الورود", "type": "hamlet", "z_order": 4.000000, "population": null }, "geometry": { "type": "Point", "coordinates": [ 46.675555992265139, 24.729166945253013 ] } },
{ "type": "Feature", "properties": { "id": 211.000000, "osm_id": 1236703951.000000, "name": "طريفة", "type": "village", "z_order": 5.000000, "population": null }, "geometry": { "type": "Point", "coordinates": [ 46.566677668431197, 24.733449846317598 ] } },
{ "type": "Feature", "properties": { "id": 212.000000, "osm_id": 1236703963.000000, "name": "صلاح الدين", "type": "hamlet", "z_order": 4.000000, "population": null }, "geometry": { "type": "Point", "coordinates": [ 46.691943954073878, 24.73305598068745 ] } },
{ "type": "Feature", "properties": { "id": 213.000000, "osm_id": 1236703858.000000, "name": "الخزامى", "type": "hamlet", "z_order": 4.000000, "population": null }, "geometry": { "type": "Point", "coordinates": [ 46.590566679208933, 24.717894961865284 ] } },
{ "type": "Feature", "properties": { "id": 214.000000, "osm_id": 1236704531.000000, "name": "قصور المقبل", "type": "village", "z_order": 5.000000, "population": null }, "geometry": { "type": "Point", "coordinates": [ 46.370599136940911, 24.509177693855776 ] } },
{ "type": "Feature", "properties": { "id": 215.000000, "osm_id": 1236704543.000000, "name": "هزلولة", "type": "village", "z_order": 5.000000, "population": null }, "geometry": { "type": "Point", "coordinates": [ 46.30777794612186, 24.496943970897913 ] } },
{ "type": "Feature", "properties": { "id": 216.000000, "osm_id": 1236704572.000000, "name": "الفيضة", "type": "village", "z_order": 5.000000, "population": null }, "geometry": { "type": "Point", "coordinates": [ 46.366943956605006, 24.450832942245597 ] } },
{ "type": "Feature", "properties": { "id": 217.000000, "osm_id": 1236704591.000000, "name": "الرفيعة", "type": "village", "z_order": 5.000000, "population": null }, "geometry": { "type": "Point", "coordinates": [ 46.334166943340136, 24.49972198506671 ] } },
{ "type": "Feature", "properties": { "id": 218.000000, "osm_id": 1236704592.000000, "name": "مزرعة الحنية", "type": "locality", "z_order": 1.000000, "population": null }, "geometry": { "type": "Point", "coordinates": [ 46.323332998212237, 24.335832979247868 ] } },
{ "type": "Feature", "properties": { "id": 219.000000, "osm_id": 1236704612.000000, "name": "روضة المحلية", "type": "locality", "z_order": 1.000000, "population": null }, "geometry": { "type": "Point", "coordinates": [ 46.341388958752503, 24.390555994315832 ] } },
{ "type": "Feature", "properties": { "id": 220.000000, "osm_id": 1236704615.000000, "name": "جبل حمراء", "type": "locality", "z_order": 1.000000, "population": null }, "geometry": { "type": "Point", "coordinates": [ 46.333332943974369, 24.699999933865939 ] } },
{ "type": "Feature", "properties": { "id": 221.000000, "osm_id": 1236704627.000000, "name": "الخرارة", "type": "locality", "z_order": 1.000000, "population": null }, "geometry": { "type": "Point", "coordinates": [ 46.250555950441765, 24.401943983243481 ] } },
{ "type": "Feature", "properties": { "id": 222.000000, "osm_id": 1236704659.000000, "name": "وادي الأوسط", "type": "locality", "z_order": 1.000000, "population": null }, "geometry": { "type": "Point", "coordinates": [ 46.499721936233747, 24.361110955200502 ] } },
{ "type": "Feature", "properties": { "id": 223.000000, "osm_id": 1236704651.000000, "name": "المغرفية", "type": "village", "z_order": 5.000000, "population": null }, "geometry": { "type": "Point", "coordinates": [ 46.433055966429009, 24.458332985386221 ] } },
{ "type": "Feature", "properties": { "id": 224.000000, "osm_id": 1236704664.000000, "name": "قدمة السقطة", "type": "locality", "z_order": 1.000000, "population": null }, "geometry": { "type": "Point", "coordinates": [ 46.26611091871311, 24.631110999520558 ] } },
{ "type": "Feature", "properties": { "id": 225.000000, "osm_id": 1236704683.000000, "name": "آبار البجادية", "type": "locality", "z_order": 1.000000, "population": null }, "geometry": { "type": "Point", "coordinates": [ 46.232221962173242, 24.588332950846137 ] } },
{ "type": "Feature", "properties": { "id": 226.000000, "osm_id": 1236704676.000000, "name": "المليحية", "type": "village", "z_order": 5.000000, "population": null }, "geometry": { "type": "Point", "coordinates": [ 46.353342139411147, 24.509483717140654 ] } },
{ "type": "Feature", "properties": { "id": 227.000000, "osm_id": 1236704719.000000, "name": "الزويدية", "type": "village", "z_order": 5.000000, "population": null }, "geometry": { "type": "Point", "coordinates": [ 46.384999917145251, 24.454443949951752 ] } },
{ "type": "Feature", "properties": { "id": 228.000000, "osm_id": 1236704762.000000, "name": "مبهلة", "type": "locality", "z_order": 1.000000, "population": null }, "geometry": { "type": "Point", "coordinates": [ 46.384999917145251, 24.351388953347595 ] } },
{ "type": "Feature", "properties": { "id": 229.000000, "osm_id": 1236704698.000000, "name": "شعيب السقطة", "type": "locality", "z_order": 1.000000, "population": null }, "geometry": { "type": "Point", "coordinates": [ 46.287777970778563, 24.502499999235511 ] } },
{ "type": "Feature", "properties": { "id": 230.000000, "osm_id": 1236704786.000000, "name": "خشم القدية", "type": "locality", "z_order": 1.000000, "population": null }, "geometry": { "type": "Point", "coordinates": [ 46.399999919607495, 24.533332997697329 ] } },
{ "type": "Feature", "properties": { "id": 231.000000, "osm_id": 1236704783.000000, "name": "وادي راصد", "type": "locality", "z_order": 1.000000, "population": null }, "geometry": { "type": "Point", "coordinates": [ 46.416666998791897, 24.349999988172726 ] } },
{ "type": "Feature", "properties": { "id": 232.000000, "osm_id": 1236704809.000000, "name": "صعب", "type": "village", "z_order": 5.000000, "population": null }, "geometry": { "type": "Point", "coordinates": [ 46.383610951970383, 24.466943965973456 ] } },
{ "type": "Feature", "properties": { "id": 233.000000, "osm_id": 1236704798.000000, "name": "البديعة", "type": "village", "z_order": 5.000000, "population": null }, "geometry": { "type": "Point", "coordinates": [ 46.400277947335745, 24.466943965973456 ] } },
{ "type": "Feature", "properties": { "id": 234.000000, "osm_id": 1236704821.000000, "name": "الأوسط", "type": "village", "z_order": 5.000000, "population": null }, "geometry": { "type": "Point", "coordinates": [ 46.43796206199454, 24.372281433740795 ] } },
{ "type": "Feature", "properties": { "id": 235.000000, "osm_id": 1236704817.000000, "name": "المزاحمية", "type": "village", "z_order": 5.000000, "population": null }, "geometry": { "type": "Point", "coordinates": [ 46.280832977266101, 24.471388973045407 ] } },
{ "type": "Feature", "properties": { "id": 236.000000, "osm_id": 1236704842.000000, "name": "سقيلة", "type": "locality", "z_order": 1.000000, "population": null }, "geometry": { "type": "Point", "coordinates": [ 46.299999959072011, 24.716666929231305 ] } },
{ "type": "Feature", "properties": { "id": 237.000000, "osm_id": 1236704856.000000, "name": "وادي صفار", "type": "locality", "z_order": 1.000000, "population": null }, "geometry": { "type": "Point", "coordinates": [ 46.381777997384397, 24.663094498011983 ] } },
{ "type": "Feature", "properties": { "id": 238.000000, "osm_id": 1236704857.000000, "name": "وادي مهدية", "type": "locality", "z_order": 1.000000, "population": null }, "geometry": { "type": "Point", "coordinates": [ 46.381545818666496, 24.662562330979512 ] } },
{ "type": "Feature", "properties": { "id": 239.000000, "osm_id": 1236704834.000000, "name": "الزمامية", "type": "village", "z_order": 5.000000, "population": null }, "geometry": { "type": "Point", "coordinates": [ 46.366943956605006, 24.470832917588865 ] } },
{ "type": "Feature", "properties": { "id": 240.000000, "osm_id": 1236704859.000000, "name": "قصر القرينة", "type": "village", "z_order": 5.000000, "population": null }, "geometry": { "type": "Point", "coordinates": [ 46.418610929775895, 24.474443925295045 ] } },
{ "type": "Feature", "properties": { "id": 241.000000, "osm_id": 1236704867.000000, "name": "قصر إبن شهيل", "type": "village", "z_order": 5.000000, "population": null }, "geometry": { "type": "Point", "coordinates": [ 46.341313437804899, 24.478571761150903 ] } },
{ "type": "Feature", "properties": { "id": 242.000000, "osm_id": 1236704866.000000, "name": "الغطغط", "type": "hamlet", "z_order": 4.000000, "population": null }, "geometry": { "type": "Point", "coordinates": [ 46.249908951335776, 24.476485924546182 ] } },
{ "type": "Feature", "properties": { "id": 243.000000, "osm_id": 1236704869.000000, "name": "وادي لبن", "type": "locality", "z_order": 1.000000, "population": null }, "geometry": { "type": "Point", "coordinates": [ 46.458610964281519, 24.572499954846535 ] } },
{ "type": "Feature", "properties": { "id": 244.000000, "osm_id": 1236704872.000000, "name": "أوبير", "type": "village", "z_order": 5.000000, "population": null }, "geometry": { "type": "Point", "coordinates": [ 46.463610937162564, 24.618332955770597 ] } },
{ "type": "Feature", "properties": { "id": 245.000000, "osm_id": 1236704878.000000, "name": "الروضة", "type": "village", "z_order": 5.000000, "population": null }, "geometry": { "type": "Point", "coordinates": [ 46.233267353137052, 24.566923893760361 ] } },
{ "type": "Feature", "properties": { "id": 246.000000, "osm_id": 1236704874.000000, "name": "قصر فيهق", "type": "village", "z_order": 5.000000, "population": null }, "geometry": { "type": "Point", "coordinates": [ 46.386570182885777, 24.4797401984533 ] } },
{ "type": "Feature", "properties": { "id": 247.000000, "osm_id": 1236704879.000000, "name": "عرق رثمة", "type": "locality", "z_order": 1.000000, "population": null }, "geometry": { "type": "Point", "coordinates": [ 46.366666934705108, 24.383332973075085 ] } },
{ "type": "Feature", "properties": { "id": 248.000000, "osm_id": 1236704880.000000, "name": "بليدة", "type": "village", "z_order": 5.000000, "population": null }, "geometry": { "type": "Point", "coordinates": [ 46.233453934301671, 24.566327437530532 ] } },
{ "type": "Feature", "properties": { "id": 249.000000, "osm_id": 1236704883.000000, "name": "الوسطى", "type": "village", "z_order": 5.000000, "population": null }, "geometry": { "type": "Point", "coordinates": [ 46.366666934705108, 24.483332933610566 ] } },
{ "type": "Feature", "properties": { "id": 250.000000, "osm_id": 1236704886.000000, "name": "البواثل", "type": "village", "z_order": 5.000000, "population": null }, "geometry": { "type": "Point", "coordinates": [ 46.350277967068017, 24.483610961338826 ] } },
{ "type": "Feature", "properties": { "id": 251.000000, "osm_id": 1236704887.000000, "name": "شعيب جمل", "type": "locality", "z_order": 1.000000, "population": null }, "geometry": { "type": "Point", "coordinates": [ 46.356943927023849, 24.387221924690493 ] } },
{ "type": "Feature", "properties": { "id": 252.000000, "osm_id": 1236704889.000000, "name": "صور بن مزبل", "type": "village", "z_order": 5.000000, "population": null }, "geometry": { "type": "Point", "coordinates": [ 46.423610986476007, 24.484999926513719 ] } },
{ "type": "Feature", "properties": { "id": 253.000000, "osm_id": 1236704891.000000, "name": "الفيصلية", "type": "village", "z_order": 5.000000, "population": null }, "geometry": { "type": "Point", "coordinates": [ 46.33972196584935, 24.48972195548555 ] } },
{ "type": "Feature", "properties": { "id": 254.000000, "osm_id": 1236704892.000000, "name": "بئر أم الشطن", "type": "locality", "z_order": 1.000000, "population": null }, "geometry": { "type": "Point", "coordinates": [ 46.229166926104568, 24.329166935473012 ] } },
{ "type": "Feature", "properties": { "id": 255.000000, "osm_id": 1236704896.000000, "name": "شخيب", "type": "hamlet", "z_order": 4.000000, "population": null }, "geometry": { "type": "Point", "coordinates": [ 46.268705955935609, 24.490233922131381 ] } },
{ "type": "Feature", "properties": { "id": 256.000000, "osm_id": 1236704899.000000, "name": "المطيوية", "type": "village", "z_order": 5.000000, "population": null }, "geometry": { "type": "Point", "coordinates": [ 46.333332943974369, 24.516666924341308 ] } },
{ "type": "Feature", "properties": { "id": 257.000000, "osm_id": 1236704901.000000, "name": "شعيب ضبيعية", "type": "locality", "z_order": 1.000000, "population": null }, "geometry": { "type": "Point", "coordinates": [ 46.366666934705108, 24.733332918768326 ] } },
{ "type": "Feature", "properties": { "id": 258.000000, "osm_id": 1236705182.000000, "name": "خشم ثنايا بلال", "type": "locality", "z_order": 1.000000, "population": null }, "geometry": { "type": "Point", "coordinates": [ 47.076388995582526, 24.450277976436467 ] } },
{ "type": "Feature", "properties": { "id": 259.000000, "osm_id": 1236705173.000000, "name": "مزارع القليب", "type": "locality", "z_order": 1.000000, "population": null }, "geometry": { "type": "Point", "coordinates": [ 46.929443923209931, 24.344999931472614 ] } },
{ "type": "Feature", "properties": { "id": 260.000000, "osm_id": 1236705195.000000, "name": "الحائر", "type": "village", "z_order": 5.000000, "population": null }, "geometry": { "type": "Point", "coordinates": [ 46.836666983915194, 24.402221927152734 ] } },
{ "type": "Feature", "properties": { "id": 261.000000, "osm_id": 1236703839.000000, "name": "الوزارات", "type": "hamlet", "z_order": 4.000000, "population": null }, "geometry": { "type": "Point", "coordinates": [ 46.709999998433176, 24.676943916625589 ] } },
{ "type": "Feature", "properties": { "id": 262.000000, "osm_id": 1236705198.000000, "name": "ضحل هيت", "type": "village", "z_order": 5.000000, "population": null }, "geometry": { "type": "Point", "coordinates": [ 47.002499920718037, 24.460555949926853 ] } },
{ "type": "Feature", "properties": { "id": 263.000000, "osm_id": 1236705204.000000, "name": "الجبيل", "type": "locality", "z_order": 1.000000, "population": null }, "geometry": { "type": "Point", "coordinates": [ 47.09833298572886, 24.408888976755975 ] } },
{ "type": "Feature", "properties": { "id": 264.000000, "osm_id": 1236705270.000000, "name": "مراغة", "type": "locality", "z_order": 1.000000, "population": null }, "geometry": { "type": "Point", "coordinates": [ 47.166666954265139, 24.366666983538096 ] } },
{ "type": "Feature", "properties": { "id": 265.000000, "osm_id": 1236705275.000000, "name": "شعيب بعيجاء", "type": "locality", "z_order": 1.000000, "population": null }, "geometry": { "type": "Point", "coordinates": [ 46.82916694077457, 24.383332973075085 ] } },
{ "type": "Feature", "properties": { "id": 266.000000, "osm_id": 1236705291.000000, "name": "شعيب لحى", "type": "locality", "z_order": 1.000000, "population": null }, "geometry": { "type": "Point", "coordinates": [ 46.823332968527716, 24.387221924690493 ] } },
{ "type": "Feature", "properties": { "id": 267.000000, "osm_id": 1236705258.000000, "name": "زويليات", "type": "locality", "z_order": 1.000000, "population": null }, "geometry": { "type": "Point", "coordinates": [ 47.146943917002687, 24.293055936401856 ] } },
{ "type": "Feature", "properties": { "id": 268.000000, "osm_id": 1236705301.000000, "name": "Al Amajiyah العماج", "type": "village", "z_order": 5.000000, "population": null }, "geometry": { "type": "Point", "coordinates": [ 46.982221917646484, 24.438055988143049 ] } },
{ "type": "Feature", "properties": { "id": 269.000000, "osm_id": 1236705297.000000, "name": "وادي حنيفة", "type": "locality", "z_order": 1.000000, "population": null }, "geometry": { "type": "Point", "coordinates": [ 47.066666993729655, 24.325555927766828 ] } },
{ "type": "Feature", "properties": { "id": 270.000000, "osm_id": 1236705444.000000, "name": "العارض", "type": "region", "z_order": 9.000000, "population": null }, "geometry": { "type": "Point", "coordinates": [ 47.00037804192965, 24.499165091419854 ] } },
{ "type": "Feature", "properties": { "id": 271.000000, "osm_id": 1236705387.000000, "name": "وادي أبا الرثي", "type": "locality", "z_order": 1.000000, "population": null }, "geometry": { "type": "Point", "coordinates": [ 47.041110990048765, 24.697221919697142 ] } },
{ "type": "Feature", "properties": { "id": 272.000000, "osm_id": 1236705587.000000, "name": "شعيب نظيم قوت", "type": "locality", "z_order": 1.000000, "population": null }, "geometry": { "type": "Point", "coordinates": [ 47.02722192503316, 24.590832937286677 ] } },
{ "type": "Feature", "properties": { "id": 273.000000, "osm_id": 1236705495.000000, "name": "العبيد", "type": "locality", "z_order": 1.000000, "population": null }, "geometry": { "type": "Point", "coordinates": [ 47.004166997440215, 24.743055926449586 ] } },
{ "type": "Feature", "properties": { "id": 274.000000, "osm_id": 1236705661.000000, "name": "مزاليج", "type": "locality", "z_order": 1.000000, "population": null }, "geometry": { "type": "Point", "coordinates": [ 47.016666929642867, 24.583332977965085 ] } },
{ "type": "Feature", "properties": { "id": 275.000000, "osm_id": 1236705640.000000, "name": "خشم السلي", "type": "locality", "z_order": 1.000000, "population": null }, "geometry": { "type": "Point", "coordinates": [ 46.949999954009741, 24.633332958232842 ] } },
{ "type": "Feature", "properties": { "id": 276.000000, "osm_id": 1236705686.000000, "name": "وادي نعيم", "type": "locality", "z_order": 1.000000, "population": null }, "geometry": { "type": "Point", "coordinates": [ 47.053055956442307, 24.514443959800673 ] } },
{ "type": "Feature", "properties": { "id": 277.000000, "osm_id": 1236705784.000000, "name": "شعيب أبا الهشم", "type": "locality", "z_order": 1.000000, "population": null }, "geometry": { "type": "Point", "coordinates": [ 46.709999998433176, 24.297221993736173 ] } },
{ "type": "Feature", "properties": { "id": 278.000000, "osm_id": 1236705793.000000, "name": "شعيب الوحيش", "type": "locality", "z_order": 1.000000, "population": null }, "geometry": { "type": "Point", "coordinates": [ 46.250832972341641, 24.810277951710844 ] } },
{ "type": "Feature", "properties": { "id": 279.000000, "osm_id": 1236705879.000000, "name": "وادي السلي", "type": "locality", "z_order": 1.000000, "population": null }, "geometry": { "type": "Point", "coordinates": [ 46.9572219694221, 24.51972196041001 ] } },
{ "type": "Feature", "properties": { "id": 280.000000, "osm_id": 1236705860.000000, "name": "عد دبيان", "type": "locality", "z_order": 1.000000, "population": null }, "geometry": { "type": "Point", "coordinates": [ 47.105555923150575, 24.645832974254514 ] } },
{ "type": "Feature", "properties": { "id": 281.000000, "osm_id": 1236705824.000000, "name": "وادي أبا الناس", "type": "locality", "z_order": 1.000000, "population": null }, "geometry": { "type": "Point", "coordinates": [ 47.041666961686246, 24.620555920311258 ] } },
{ "type": "Feature", "properties": { "id": 282.000000, "osm_id": 1236705805.000000, "name": "جبل الجبيل", "type": "locality", "z_order": 1.000000, "population": null }, "geometry": { "type": "Point", "coordinates": [ 46.95333293398766, 24.621666941576905 ] } },
{ "type": "Feature", "properties": { "id": 283.000000, "osm_id": 1236705909.000000, "name": "ضحل هيت", "type": "locality", "z_order": 1.000000, "population": null }, "geometry": { "type": "Point", "coordinates": [ 47.008055949055631, 24.483610961338826 ] } },
{ "type": "Feature", "properties": { "id": 284.000000, "osm_id": 1236705888.000000, "name": "خشم العان", "type": "hamlet", "z_order": 4.000000, "population": null }, "geometry": { "type": "Point", "coordinates": [ 46.939166930891218, 24.726666958812473 ] } },
{ "type": "Feature", "properties": { "id": 285.000000, "osm_id": 1236705918.000000, "name": "حقو دبيان", "type": "locality", "z_order": 1.000000, "population": null }, "geometry": { "type": "Point", "coordinates": [ 47.114999981094229, 24.647777994885928 ] } },
{ "type": "Feature", "properties": { "id": 286.000000, "osm_id": 1236705803.000000, "name": "درب مزاليج", "type": "locality", "z_order": 1.000000, "population": null }, "geometry": { "type": "Point", "coordinates": [ 47.088055934247819, 24.569999968405995 ] } },
{ "type": "Feature", "properties": { "id": 287.000000, "osm_id": 1357417067.000000, "name": "Al Wazarat", "type": "hamlet", "z_order": 4.000000, "population": null }, "geometry": { "type": "Point", "coordinates": [ 46.717992143109107, 24.68433524648205 ] } },
{ "type": "Feature", "properties": { "id": 288.000000, "osm_id": 1236703864.000000, "name": "عكاظ", "type": "hamlet", "z_order": 4.000000, "population": null }, "geometry": { "type": "Point", "coordinates": [ 46.663610942052564, 24.523332968116193 ] } },
{ "type": "Feature", "properties": { "id": 289.000000, "osm_id": 1627842713.000000, "name": "Janadriyah", "type": "suburb", "z_order": 3.000000, "population": null }, "geometry": { "type": "Point", "coordinates": [ 46.796499059889015, 24.963650518894013 ] } },
{ "type": "Feature", "properties": { "id": 290.000000, "osm_id": 2619014799.000000, "name": null, "type": "neighbourhood", "z_order": 2.000000, "population": null }, "geometry": { "type": "Point", "coordinates": [ 46.856388931530205, 24.472570737573843 ] } },
{ "type": "Feature", "properties": { "id": 291.000000, "osm_id": 2619014802.000000, "name": null, "type": "town", "z_order": 6.000000, "population": null }, "geometry": { "type": "Point", "coordinates": [ 46.85576137843961, 24.467389883222296 ] } },
{ "type": "Feature", "properties": { "id": 292.000000, "osm_id": 2622192844.000000, "name": null, "type": "hamlet", "z_order": 4.000000, "population": null }, "geometry": { "type": "Point", "coordinates": [ 46.40260275199995, 24.532972492041836 ] } },
{ "type": "Feature", "properties": { "id": 293.000000, "osm_id": 2622192852.000000, "name": null, "type": "village", "z_order": 5.000000, "population": null }, "geometry": { "type": "Point", "coordinates": [ 46.484515822772465, 24.588787249998148 ] } },
{ "type": "Feature", "properties": { "id": 294.000000, "osm_id": 2622192808.000000, "name": null, "type": "hamlet", "z_order": 4.000000, "population": null }, "geometry": { "type": "Point", "coordinates": [ 46.471782370747405, 24.585529790967826 ] } },
{ "type": "Feature", "properties": { "id": 295.000000, "osm_id": 2622192888.000000, "name": null, "type": "neighbourhood", "z_order": 2.000000, "population": null }, "geometry": { "type": "Point", "coordinates": [ 46.405542453080983, 24.533030578630843 ] } },
{ "type": "Feature", "properties": { "id": 296.000000, "osm_id": 2622192881.000000, "name": null, "type": "village", "z_order": 5.000000, "population": null }, "geometry": { "type": "Point", "coordinates": [ 46.468746026322798, 24.589616555498139 ] } },
{ "type": "Feature", "properties": { "id": 297.000000, "osm_id": 2622192854.000000, "name": null, "type": "town", "z_order": 6.000000, "population": null }, "geometry": { "type": "Point", "coordinates": [ 46.553697536995713, 24.609902186101579 ] } },
{ "type": "Feature", "properties": { "id": 298.000000, "osm_id": 2622192919.000000, "name": null, "type": "village", "z_order": 5.000000, "population": null }, "geometry": { "type": "Point", "coordinates": [ 46.47918367506864, 24.586437551081527 ] } },
{ "type": "Feature", "properties": { "id": 299.000000, "osm_id": 2622192921.000000, "name": null, "type": "village", "z_order": 5.000000, "population": null }, "geometry": { "type": "Point", "coordinates": [ 46.541378653901603, 24.601928397793586 ] } },
{ "type": "Feature", "properties": { "id": 300.000000, "osm_id": 2622192924.000000, "name": null, "type": "hamlet", "z_order": 4.000000, "population": null }, "geometry": { "type": "Point", "coordinates": [ 46.5365399488376, 24.597577016580086 ] } },
{ "type": "Feature", "properties": { "id": 301.000000, "osm_id": 3339871801.000000, "name": "Sports City 1", "type": "locality", "z_order": 1.000000, "population": null }, "geometry": { "type": "Point", "coordinates": [ 46.709355178622012, 24.856215977881675 ] } },
{ "type": "Feature", "properties": { "id": 302.000000, "osm_id": 3339871803.000000, "name": "Sports City 2", "type": "locality", "z_order": 1.000000, "population": null }, "geometry": { "type": "Point", "coordinates": [ 46.728481424378508, 24.858973624025765 ] } },
{ "type": "Feature", "properties": { "id": 303.000000, "osm_id": 3351701614.000000, "name": "Palace of King Abd Allah Ibn Abd Al Aziz", "type": "locality", "z_order": 1.000000, "population": null }, "geometry": { "type": "Point", "coordinates": [ 46.751041232950996, 24.718681771116167 ] } },
{ "type": "Feature", "properties": { "id": 304.000000, "osm_id": 3358913768.000000, "name": "Al Sutanah", "type": "village", "z_order": 5.000000, "population": null }, "geometry": { "type": "Point", "coordinates": [ 46.4671694741549, 25.01300651754093 ] } },
{ "type": "Feature", "properties": { "id": 305.000000, "osm_id": 3359561918.000000, "name": "Al-Khear", "type": "locality", "z_order": 1.000000, "population": null }, "geometry": { "type": "Point", "coordinates": [ 46.421972827319763, 25.051828391736478 ] } },
{ "type": "Feature", "properties": { "id": 306.000000, "osm_id": 3359561919.000000, "name": "Al-Shimal", "type": "locality", "z_order": 1.000000, "population": null }, "geometry": { "type": "Point", "coordinates": [ 46.471351876200401, 25.03107974480173 ] } },
{ "type": "Feature", "properties": { "id": 307.000000, "osm_id": 3359429290.000000, "name": "New Jubaylah", "type": "village", "z_order": 5.000000, "population": null }, "geometry": { "type": "Point", "coordinates": [ 46.444452337259833, 24.914818724471559 ] } },
{ "type": "Feature", "properties": { "id": 308.000000, "osm_id": 3385853129.000000, "name": "Oraid", "type": "locality", "z_order": 1.000000, "population": null }, "geometry": { "type": "Point", "coordinates": [ 46.703985060896827, 24.439906125630529 ] } },
{ "type": "Feature", "properties": { "id": 309.000000, "osm_id": 3385853148.000000, "name": "Al-Haier", "type": "locality", "z_order": 1.000000, "population": null }, "geometry": { "type": "Point", "coordinates": [ 46.767674868341743, 24.484312778091549 ] } },
{ "type": "Feature", "properties": { "id": 310.000000, "osm_id": 3385853262.000000, "name": "Dhrat Nemar", "type": "locality", "z_order": 1.000000, "population": null }, "geometry": { "type": "Point", "coordinates": [ 46.630981953197761, 24.543805934255545 ] } },
{ "type": "Feature", "properties": { "id": 311.000000, "osm_id": 3386009706.000000, "name": "Dahiat Namar", "type": "locality", "z_order": 1.000000, "population": null }, "geometry": { "type": "Point", "coordinates": [ 46.533472339914141, 24.501556448395263 ] } },
{ "type": "Feature", "properties": { "id": 312.000000, "osm_id": 3388650536.000000, "name": "Twaeeq", "type": "locality", "z_order": 1.000000, "population": null }, "geometry": { "type": "Point", "coordinates": [ 46.468942246676079, 24.552975065775115 ] } },
{ "type": "Feature", "properties": { "id": 313.000000, "osm_id": 3777621558.000000, "name": "الإزدهار", "type": "hamlet", "z_order": 4.000000, "population": null }, "geometry": { "type": "Point", "coordinates": [ 46.717530132606186, 24.780320694492588 ] } },
{ "type": "Feature", "properties": { "id": 314.000000, "osm_id": 3856672158.000000, "name": "Al-yarmok", "type": "suburb", "z_order": 3.000000, "population": null }, "geometry": { "type": "Point", "coordinates": [ 46.782055448159433, 24.807721219785829 ] } },
{ "type": "Feature", "properties": { "id": 315.000000, "osm_id": 4590661166.000000, "name": "Al-hamra الحمراء", "type": "suburb", "z_order": 3.000000, "population": null }, "geometry": { "type": "Point", "coordinates": [ 46.752651228912555, 24.776169137850758 ] } },
{ "type": "Feature", "properties": { "id": 316.000000, "osm_id": 4590661167.000000, "name": "king fisal الملك فيصل", "type": "suburb", "z_order": 3.000000, "population": null }, "geometry": { "type": "Point", "coordinates": [ 46.774988665593867, 24.762199355107583 ] } },
{ "type": "Feature", "properties": { "id": 317.000000, "osm_id": 4590661165.000000, "name": "Gurnada غرناطة", "type": "suburb", "z_order": 3.000000, "population": null }, "geometry": { "type": "Point", "coordinates": [ 46.753252043732033, 24.795703749929856 ] } },
{ "type": "Feature", "properties": { "id": 318.000000, "osm_id": 4590661168.000000, "name": "القدس Al-quds", "type": "suburb", "z_order": 3.000000, "population": null }, "geometry": { "type": "Point", "coordinates": [ 46.753981688403286, 24.754970382715584 ] } }
]
}
